[
  {
    "id": 1,
    "nameEnglish": "Riviera Hotel Macau",
    "nameChinese": "濠璟酒店",
    "addressEnglish": "Rua Comendador Kou Ho Neng, Macau",
    "addressChinese": "澳門高美士街",
    "area": "Macau Peninsula",
    "descriptionEnglish": "Base hotel for the trip and an easy starting point for the first day.",
    "descriptionChinese": "行程住宿基地，適合做第一天的出發點。",
    "priority": 1,
    "latitude": 22.1852,
    "longitude": 113.5333,
    "zoom": 16
  },
  {
    "id": 2,
    "nameEnglish": "Solution Climbing Gym",
    "nameChinese": "Solution 攀岩館",
    "addressEnglish": "Macau",
    "addressChinese": "澳門",
    "area": "Macau",
    "descriptionEnglish": "Indoor climbing spot for training, warmups, or a weather-proof activity.",
    "descriptionChinese": "室內攀岩地點，可訓練、熱身，或作為天氣不佳時的替代活動。",
    "priority": 1,
    "latitude": 22.2104,
    "longitude": 113.5556,
    "zoom": 16
  },
  {
    "id": 3,
    "nameEnglish": "Complexo Desportivo da UM",
    "nameChinese": "澳門大學綜合體育館（N8）",
    "addressEnglish": "University of Macau, Hengqin, Macau",
    "addressChinese": "澳門大學橫琴校區",
    "area": "University of Macau",
    "descriptionEnglish": "Sports complex on the University of Macau campus.",
    "descriptionChinese": "澳門大學校園內的綜合體育設施。",
    "priority": 1,
    "latitude": 22.1337,
    "longitude": 113.5429,
    "zoom": 16
  },
  {
    "id": 4,
    "nameEnglish": "The Parisian Macao",
    "nameChinese": "澳門巴黎人",
    "addressEnglish": "Estrada do Istmo, Cotai, Macau",
    "addressChinese": "澳門路氹金光大道",
    "area": "Cotai",
    "descriptionEnglish": "Resort area with the Eiffel Tower replica and easy photo stops.",
    "descriptionChinese": "度假村區域，有艾菲爾鐵塔複製景觀，適合拍照。",
    "priority": 2,
    "latitude": 22.1436,
    "longitude": 113.5621,
    "zoom": 16
  },
  {
    "id": 5,
    "nameEnglish": "Senado Square",
    "nameChinese": "議事亭前地",
    "addressEnglish": "Largo do Senado, Macau Peninsula",
    "addressChinese": "澳門議事亭前地",
    "area": "Historic Centre of Macau",
    "descriptionEnglish": "Historic town square and a strong walk-around stop for the trip.",
    "descriptionChinese": "澳門歷史城區核心廣場，很適合散步停留。",
    "priority": 3,
    "latitude": 22.1936,
    "longitude": 113.5397,
    "zoom": 16
  },
  {
    "id": 6,
    "nameEnglish": "Ruins of Saint Paul's",
    "nameChinese": "大三巴牌坊",
    "addressEnglish": "Rua de São Paulo, Macau Peninsula",
    "addressChinese": "澳門大三巴街",
    "area": "Historic Centre of Macau",
    "descriptionEnglish": "Iconic Macau landmark and one of the most recognizable photo spots.",
    "descriptionChinese": "澳門代表性地標，也是最經典的拍照點之一。",
    "priority": 3,
    "latitude": 22.1977,
    "longitude": 113.5409,
    "zoom": 16
  }
]